[
  {
      "address":"2804, 55 Millbrook St, Worcester, MA 01606",
      "name": "Greater Good Imperial Brewing",
      "position": {
          "lat": 42.287557,
          "lng": -71.801636
      }
  },
  {
      "address":"72 Shrewsbury St #4, Worcester, MA 01604",
      "name": "Wormtown Brewery",
      "position": {
          "lat": 42.263498,
          "lng": -71.791172
      }
  },
  {
      "address":"4 Knowlton Ave, Worcester, MA 01603",
      "name": "3Cross Fermentation Coop",
      "position": {
          "lat": 42.243875,
          "lng": -71.830257
      }
  },
  {
      "address":"455B Park Ave, Worcester, MA 01610",
      "name": "Flying Dreams Brewing Co.",
      "position": {
          "lat": 42.254561,
          "lng": -71.825493
      }
  },
  {
      "address":"1148 Main St, Holden, MA 01520",
      "name": "7 Saws Brewing Company",
      "position": {
          "lat": 42.350053,
          "lng": -71.860057
      }
  },
  {
      "address":"4 Industrial Road, Milford, MA 01757",
      "name": "CraftRoots Brewing",
      "position": {
          "lat": 42.141541,
          "lng": -71.492362
      }
  },
  {
      "address":"74 Parker St, Gardner, MA 01440",
      "name": "Gardner Ale House",
      "position": {
          "lat": 42.575736,
          "lng": -71.997048
      }
  },
  {
      "address":"3 Arnold Rd, Sturbridge, MA 01566",
      "name": "Homefield Kitchen & Brewery",
      "position": {
          "lat": 42.115728,
          "lng": -72.106603
      }
  },
  {
      "address":"9 Frederick St, Webster, MA 01570",
      "name": "Kretschmann Brewery & Beer Garden",
      "position": {
          "lat": 42.050908,
          "lng": -71.881267
      }
  },
  {
      "address":"111 Main St, Hudson, MA 01749",
      "name": "Medusa Brewing Company",
      "position": {
          "lat": 42.390950,
          "lng": -71.566769
      }
  },
  {
      "address":"670 Linwood Ave building c, Whitinsville, MA 01588",
      "name": "Purgatory Beer Company",
      "position": {
          "lat": 42.098538,
          "lng": -71.646514
      }
  },
  {
      "address":"195 Arnold Rd, Sturbridge, MA 01518",
      "name": "Rapscallion Brewery",
      "position": {
          "lat": 42.141500,
          "lng": -72.110500
      }
  },
  {
      "address":"555 E Main St, East Brookfield, MA 01515",
      "name": "Timberyard Brewing Company",
      "position": {
          "lat": 42.230953,
          "lng": -72.029140
      }
  },
  {
      "address":"129 Sturbridge Rd, Charlton, MA 01507",
      "name": "Tree House Brewing Company",
      "position": {
          "lat": 42.139276,
          "lng": -72.017215
      }
  },
  {
      "address":"175 State Rd E, Westminster, MA 01473",
      "name": "Wachusett Brewing Company",
      "position": {
          "lat": 42.558417,
          "lng": -71.870781
      }
  },
  {
      "address":"500 West St B, Barre, MA 01005",
      "name": "Stone Cow Brewery",
      "position": {
          "lat": 42.424736,
          "lng": -72.124258
      }
  },
  {
      "address":"108 Milk St #6, Westborough, MA 01581",
      "name": "Cold Harbor Brewing",
      "position": {
          "lat": 42.273907,
          "lng": -71.625122            
      }
  },
  {
      "address":"West Boylston, MA",
      "name": "Henry and Fran Brewing Co.",
      "position": {
          "lat": 42.366759,
          "lng": -71.785627
      }
  }
]